{"type": "FeatureCollection","features": [
{"type": "Feature","properties": {"RUTA": "AV01","COD CLIENTE": "1008019","NOMBRE": "YANGZHOU S.A.C.","DOC. IDENT.":"20601442681","GIRO NEGOCIO": "RESTAURANTES","DISTRITO":"SAN MIGUEL","REGION":"_unknwon","COUNT":1,"LNG":-77.081495,"LAT":-12.079187},"geometry": {"type": "Point","coordinates": [-77.081495,-12.079187]}},
{"type": "Feature","properties": {"RUTA": "AV01","COD CLIENTE": "1008599","NOMBRE": "NOVA-INDUSTRIAL TOOLS S.A.C.","DOC. IDENT.":"20502365879","GIRO NEGOCIO": "BODEGAS","DISTRITO":"ATE","REGION":"_unknwon","COUNT":1,"LNG":-76.9887,"LAT":-12.069766},"geometry": {"type": "Point","coordinates": [-76.9887,-12.069766]}},
{"type": "Feature","properties": {"RUTA": "VA03","COD CLIENTE": "1003083","NOMBRE": "PADILLA CHANCO EFRAIN","DOC. IDENT.":"40789776","GIRO NEGOCIO": "BODEGAS","DISTRITO":"JESUS MARIA","REGION":"_unknwon","COUNT":1,"LNG":-77.0443,"LAT":-12.0786},"geometry": {"type": "Point","coordinates": [-77.0443,-12.0786]}},
{"type": "Feature","properties": {"RUTA": "VA03","COD CLIENTE": "1008758","NOMBRE": "QUISPE HUARINGA ESTELA ELVIRA","DOC. IDENT.":"10090687374","GIRO NEGOCIO": "BODEGAS","DISTRITO":"LA MOLINA","REGION":"_unknwon","COUNT":1,"LNG":-76.939999,"LAT":-12.072871},"geometry": {"type": "Point","coordinates": [-76.939999,-12.072871]}},
{"type": "Feature","properties": {"RUTA": "VA04","COD CLIENTE": "1008767","NOMBRE": "MARCAÃ‘AUPA VARGAS MARTHA","DOC. IDENT.":"44277634","GIRO NEGOCIO": "BODEGAS","DISTRITO":"LA VICTORIA","REGION":"_unknwon","COUNT":1,"LNG":-77.062387,"LAT":-12.062387},"geometry": {"type": "Point","coordinates": [-77.062387,-12.062387]}},
{"type": "Feature","properties": {"RUTA": "VAR01","COD CLIENTE": "1018242","NOMBRE": "AGUAMAN BLAS LUIS","DOC. IDENT.":"40997374","GIRO NEGOCIO": "BODEGAS","DISTRITO":"CALLAO","REGION":"HUANCAVELICA","COUNT":1,"LNG":-77.09076,"LAT":-12.013583},"geometry": {"type": "Point","coordinates": [-77.09076,-12.013583]}},
{"type": "Feature","properties": {"RUTA": "VAR01","COD CLIENTE": "1018245","NOMBRE": "AICHU HUARCAYA PERCY DAVID","DOC. IDENT.":"41292597","GIRO NEGOCIO": "BODEGAS","DISTRITO":"CALLAO","REGION":"HUANCAVELICA","COUNT":2,"LNG":-77.091061,"LAT":-12.016706},"geometry": {"type": "Point","coordinates": [-77.091061,-12.016706]}},
{"type": "Feature","properties": {"RUTA": "VAR01","COD CLIENTE": "1018285","NOMBRE": "LICAPA TORRES RODRIGO","DOC. IDENT.":"25820313","GIRO NEGOCIO": "BODEGAS","DISTRITO":"CALLAO","REGION":"HUANCAVELICA","COUNT":5,"LNG":-77.132877,"LAT":-12.062368},"geometry": {"type": "Point","coordinates": [-77.132877,-12.062368]}},
{"type": "Feature","properties": {"RUTA": "VAR01","COD CLIENTE": "1018357","NOMBRE": "ANCAJIMA PRADO SUSY BETTY","DOC. IDENT.":"10400970519","GIRO NEGOCIO": "BODEGAS","DISTRITO":"BELLAVISTA","REGION":"HUANCAVELICA","COUNT":2,"LNG":-77.110785,"LAT":-12.069974},"geometry": {"type": "Point","coordinates": [-77.110785,-12.069974]}},
{"type": "Feature","properties": {"RUTA": "VAR01","COD CLIENTE": "1018358","NOMBRE": "AMAYA RUMICHE MARITZA","DOC. IDENT.":"25606969","GIRO NEGOCIO": "BODEGAS","DISTRITO":"BELLAVISTA","REGION":"HUANCAVELICA","COUNT":2,"LNG":-77.110785,"LAT":-12.069974},"geometry": {"type": "Point","coordinates": [-77.110785,-12.069974]}},
{"type": "Feature","properties": {"RUTA": "VAR01","COD CLIENTE": "1018470","NOMBRE": "HUAMBACHANO MUNARRES SONIA","DOC. IDENT.":"25705470","GIRO NEGOCIO": "BODEGAS","DISTRITO":"LA PERLA","REGION":"HUANCAVELICA","COUNT":3,"LNG":-77.12193,"LAT":-12.068128},"geometry": {"type": "Point","coordinates": [-77.12193,-12.068128]}},
{"type": "Feature","properties": {"RUTA": "VAR01","COD CLIENTE": "1018472","NOMBRE": "FRANCO BLACK DIEGO","DOC. IDENT.":"41054791","GIRO NEGOCIO": "BODEGAS","DISTRITO":"LA PERLA","REGION":"HUANCAVELICA","COUNT":2,"LNG":-77.124866,"LAT":-12.069119},"geometry": {"type": "Point","coordinates": [-77.124866,-12.069119]}},
{"type": "Feature","properties": {"RUTA": "VAR01","COD CLIENTE": "1018473","NOMBRE": "MARTINEZ HERRERA JAVIER","DOC. IDENT.":"25769038","GIRO NEGOCIO": "BODEGAS","DISTRITO":"LA PERLA","REGION":"HUANCAVELICA","COUNT":14,"LNG":-77.124783,"LAT":-12.068495},"geometry": {"type": "Point","coordinates": [-77.124783,-12.068495]}},
{"type": "Feature","properties": {"RUTA": "VAR01","COD CLIENTE": "1018475","NOMBRE": "BOCANEGRA ZAVALACA ROSSANA","DOC. IDENT.":"10254936559","GIRO NEGOCIO": "BODEGAS","DISTRITO":"LA PERLA","REGION":"HUANCAVELICA","COUNT":2,"LNG":-77.122218,"LAT":-12.066459},"geometry": {"type": "Point","coordinates": [-77.122218,-12.066459]}},
{"type": "Feature","properties": {"RUTA": "VAR01","COD CLIENTE": "1018477","NOMBRE": "BRIONES POMA LILIANA","DOC. IDENT.":"25837623","GIRO NEGOCIO": "BODEGAS","DISTRITO":"LA PERLA","REGION":"HUANCAVELICA","COUNT":2,"LNG":-77.125003,"LAT":-12.066688},"geometry": {"type": "Point","coordinates": [-77.125003,-12.066688]}},
{"type": "Feature","properties": {"RUTA": "VAR01","COD CLIENTE": "1018559","NOMBRE": "LAZO FLOR DE MARIA  IRIS","DOC. IDENT.":"10078695418","GIRO NEGOCIO": "BODEGAS","DISTRITO":"BARRANCO","REGION":"_unknwon","COUNT":3,"LNG":-77.021919,"LAT":-12.135972},"geometry": {"type": "Point","coordinates": [-77.021919,-12.135972]}},
{"type": "Feature","properties": {"RUTA": "VAR01","COD CLIENTE": "1018703","NOMBRE": "ALTAMIRANO SEMINARI OLGA  KARINA","DOC. IDENT.":"25701299","GIRO NEGOCIO": "BODEGAS","DISTRITO":"BELLAVISTA","REGION":"_unknwon","COUNT":2,"LNG":-77.105234,"LAT":-12.359048},"geometry": {"type": "Point","coordinates": [-77.105234,-12.359048]}},
{"type": "Feature","properties": {"RUTA": "VAR01","COD CLIENTE": "1018709","NOMBRE": "HUACCHO ECHEVARRIA JOSE LUIS","DOC. IDENT.":"7331009","GIRO NEGOCIO": "MERCADOS","DISTRITO":"BELLAVISTA","REGION":"HUANCAVELICA","COUNT":3,"LNG":-77.105283,"LAT":-12.059432},"geometry": {"type": "Point","coordinates": [-77.105283,-12.059432]}},
{"type": "Feature","properties": {"RUTA": "VAR01","COD CLIENTE": "1018838","NOMBRE": "LEON GUTIERREZ ANTONIO","DOC. IDENT.":"8102442","GIRO NEGOCIO": "BODEGAS","DISTRITO":"CALLAO","REGION":"HUANCAVELICA","COUNT":3,"LNG":-77.13192,"LAT":-12.069933},"geometry": {"type": "Point","coordinates": [-77.13192,-12.069933]}},
{"type": "Feature","properties": {"RUTA": "VAR01","COD CLIENTE": "1018840","NOMBRE": "MADRID PALACIOS SOCORRO","DOC. IDENT.":"2796412","GIRO NEGOCIO": "BODEGAS","DISTRITO":"CALLAO","REGION":"HUANCAVELICA","COUNT":8,"LNG":-77.129753,"LAT":-12.069957},"geometry": {"type": "Point","coordinates": [-77.129753,-12.069957]}}
]}
